profile_id,counter_id,name,direction,display_name,x_coord,y_coord,lat,lon,coordinates,file
Z001_auswärts,Z001,Seestrasse (Strandbad Wollishofen),auswärts,Z001 - Seestrasse (Strandbad Wollishofen) (auswärts),2683009.89,1243936.2,47.34105853042039,8.537068036893146,"[47.34105853042039,8.537068036893146]",data/prepared/profiles/Z001_auswärts.csv
Z001_einwärts,Z001,Seestrasse (Strandbad Wollishofen),einwärts,Z001 - Seestrasse (Strandbad Wollishofen) (einwärts),2683013.18,1243937.64,47.34107106679844,8.537111833404706,"[47.34107106679844,8.537111833404706]",data/prepared/profiles/Z001_einwärts.csv
Z002_auswärts,Z002,Albisstrasse (Widmerstrasse),auswärts,Z002 - Albisstrasse (Widmerstrasse) (auswärts),2682480.51,1243162.5,47.33416670595236,8.529921464289464,"[47.33416670595236,8.529921464289464]",data/prepared/profiles/Z002_auswärts.csv
Z002_einwärts,Z002,Albisstrasse (Widmerstrasse),einwärts,Z002 - Albisstrasse (Widmerstrasse) (einwärts),2682484.91,1243162.41,47.334165346180285,8.52997965640755,"[47.334165346180285,8.52997965640755]",data/prepared/profiles/Z002_einwärts.csv
Z003_auswärts,Z003,Sood-/Leimbachstrasse,auswärts,Z003 - Sood-/Leimbachstrasse (auswärts),2681573.79,1242969.91,47.33254743168517,8.517891174463774,"[47.33254743168517,8.517891174463774]",data/prepared/profiles/Z003_auswärts.csv
Z003_einwärts,Z003,Sood-/Leimbachstrasse,einwärts,Z003 - Sood-/Leimbachstrasse (einwärts),2681607.86,1243010.95,47.33291231033498,8.518349352547869,"[47.33291231033498,8.518349352547869]",data/prepared/profiles/Z003_einwärts.csv
Z004_auswärts,Z004,Birmensdorferstrasse (Triemli),auswärts,Z004 - Birmensdorferstrasse (Triemli) (auswärts),2679762.52,1246863.95,47.36779007207364,8.494623260545984,"[47.36779007207364,8.494623260545984]",data/prepared/profiles/Z004_auswärts.csv
Z004_einwärts,Z004,Birmensdorferstrasse (Triemli),einwärts,Z004 - Birmensdorferstrasse (Triemli) (einwärts),2679771.84,1246852.29,47.36768408027976,8.494744558294375,"[47.36768408027976,8.494744558294375]",data/prepared/profiles/Z004_einwärts.csv
Z005_auswärts,Z005,Albisriederstrasse (Lyrenweg),auswärts,Z005 - Albisriederstrasse (Lyrenweg) (auswärts),2678874.03,1247598.55,47.374503607417246,8.482991115336937,"[47.374503607417246,8.482991115336937]",data/prepared/profiles/Z005_auswärts.csv
Z005_einwärts,Z005,Albisriederstrasse (Lyrenweg),einwärts,Z005 - Albisriederstrasse (Lyrenweg) (einwärts),2678871.97,1247592.79,47.37445205165537,8.482962827328818,"[47.37445205165537,8.482962827328818]",data/prepared/profiles/Z005_einwärts.csv
Z006_auswärts,Z006,Badenerstrasse (Hermetschloobrücke),auswärts,Z006 - Badenerstrasse (Hermetschloobrücke) (auswärts),2678023.77,1249754.67,47.39399578587541,8.472110139179229,"[47.39399578587541,8.472110139179229]",data/prepared/profiles/Z006_auswärts.csv
Z006_einwärts,Z006,Badenerstrasse (Hermetschloobrücke),einwärts,Z006 - Badenerstrasse (Hermetschloobrücke) (einwärts),2678017.34,1249747.52,47.39393224447725,8.472023731621112,"[47.39393224447725,8.472023731621112]",data/prepared/profiles/Z006_einwärts.csv
Z008_auswärts,Z008,Limmattalstrasse (Frankentalerstrasse),auswärts,Z008 - Limmattalstrasse (Frankentalerstrasse) (auswärts),2678639.3,1251013.35,47.40524239654595,8.48048368883257,"[47.40524239654595,8.48048368883257]",data/prepared/profiles/Z008_auswärts.csv
Z008_einwärts,Z008,Limmattalstrasse (Frankentalerstrasse),einwärts,Z008 - Limmattalstrasse (Frankentalerstrasse) (einwärts),2678533.23,1250991.72,47.40506052654081,8.47907477755583,"[47.40506052654081,8.47907477755583]",data/prepared/profiles/Z008_einwärts.csv
Z009_auswärts,Z009,Regensdorferstrasse (Frankentalerstrasse),auswärts,Z009 - Regensdorferstrasse (Frankentalerstrasse) (auswärts),2678841.72,1252207.33,47.415956085479074,8.483375732622852,"[47.415956085479074,8.483375732622852]",data/prepared/profiles/Z009_auswärts.csv
Z009_einwärts,Z009,Regensdorferstrasse (Frankentalerstrasse),einwärts,Z009 - Regensdorferstrasse (Frankentalerstrasse) (einwärts),2678836.59,1252206.8,47.41595193323872,8.483307668255932,"[47.41595193323872,8.483307668255932]",data/prepared/profiles/Z009_einwärts.csv
Z010_auswärts,Z010,Wehntalerstrasse (Zehntenhausplatz),auswärts,Z010 - Wehntalerstrasse (Zehntenhausplatz) (auswärts),2680425.14,1252660.75,47.41984233052451,8.504437070667969,"[47.41984233052451,8.504437070667969]",data/prepared/profiles/Z010_auswärts.csv
Z010_einwärts,Z010,Wehntalerstrasse (Zehntenhausplatz),einwärts,Z010 - Wehntalerstrasse (Zehntenhausplatz) (einwärts),2680421.43,1252654.93,47.41979044269868,8.504386863506095,"[47.41979044269868,8.504386863506095]",data/prepared/profiles/Z010_einwärts.csv
Z011_auswärts,Z011,Glattalstrasse (Kolbenackerstrasse),auswärts,Z011 - Glattalstrasse (Kolbenackerstrasse) (auswärts),2683637.14,1253424.13,47.426307381670306,8.547140588576962,"[47.426307381670306,8.547140588576962]",data/prepared/profiles/Z011_auswärts.csv
Z011_einwärts,Z011,Glattalstrasse (Kolbenackerstrasse),einwärts,Z011 - Glattalstrasse (Kolbenackerstrasse) (einwärts),2683585.35,1253498.54,47.426983144525906,8.546468184025155,"[47.426983144525906,8.546468184025155]",data/prepared/profiles/Z011_einwärts.csv
Z012_auswärts,Z012,Schaffhauserstrasse (Glatttalstrasse),auswärts,Z012 - Schaffhauserstrasse (Glatttalstrasse) (auswärts),2683993.98,1253123.36,47.42355706074551,8.55181292130483,"[47.42355706074551,8.55181292130483]",data/prepared/profiles/Z012_auswärts.csv
Z012_einwärts,Z012,Schaffhauserstrasse (Glatttalstrasse),einwärts,Z012 - Schaffhauserstrasse (Glatttalstrasse) (einwärts),2683989.6,1253125.84,47.42357992272814,8.551755346312008,"[47.42357992272814,8.551755346312008]",data/prepared/profiles/Z012_einwärts.csv
Z013_auswärts,Z013,Thurgauerstrasse (Schärenmoosstrasse),auswärts,Z013 - Thurgauerstrasse (Schärenmoosstrasse) (auswärts),2684306.94,1252690.68,47.419625873998214,8.555878441251167,"[47.419625873998214,8.555878441251167]",data/prepared/profiles/Z013_auswärts.csv
Z013_einwärts,Z013,Thurgauerstrasse (Schärenmoosstrasse),einwärts,Z013 - Thurgauerstrasse (Schärenmoosstrasse) (einwärts),2684310.47,1252727.56,47.41995709179105,8.555932173778457,"[47.41995709179105,8.555932173778457]",data/prepared/profiles/Z013_einwärts.csv
Z014_auswärts,Z014,Weststrasse (Ueberlandstrasse),auswärts,Z014 - Weststrasse (Ueberlandstrasse) (auswärts),2686139.38,1251547.6,47.40910873433026,8.579938633614873,"[47.40910873433026,8.579938633614873]",data/prepared/profiles/Z014_auswärts.csv
Z014_einwärts,Z014,Weststrasse (Ueberlandstrasse),einwärts,Z014 - Weststrasse (Ueberlandstrasse) (einwärts),2686130.26,1251546.14,47.40909679719929,8.579817532818955,"[47.40909679719929,8.579817532818955]",data/prepared/profiles/Z014_einwärts.csv
Z015_auswärts,Z015,Neue Winterthurerstrasse (Ueberlandstrasse),auswärts,Z015 - Neue Winterthurerstrasse (Ueberlandstrasse) (auswärts),2687021.11,1251261.03,47.406415622971934,8.59156376264785,"[47.406415622971934,8.59156376264785]",data/prepared/profiles/Z015_auswärts.csv
Z015_einwärts,Z015,Neue Winterthurerstrasse (Ueberlandstrasse),einwärts,Z015 - Neue Winterthurerstrasse (Ueberlandstrasse) (einwärts),2687010.56,1251264.63,47.40644939253651,8.591424706920156,"[47.40644939253651,8.591424706920156]",data/prepared/profiles/Z015_einwärts.csv
Z016_auswärts,Z016,Ueberlandstrasse (Neue Winterthurerstrasse),auswärts,Z016 - Ueberlandstrasse (Neue Winterthurerstrasse) (auswärts),2687005.31,1251174.49,47.40563943945429,8.591337617276631,"[47.40563943945429,8.591337617276631]",data/prepared/profiles/Z016_auswärts.csv
Z016_einwärts,Z016,Ueberlandstrasse (Neue Winterthurerstrasse),einwärts,Z016 - Ueberlandstrasse (Neue Winterthurerstrasse) (einwärts),2687010.02,1251185.21,47.405735224227534,8.591402096335328,"[47.405735224227534,8.591402096335328]",data/prepared/profiles/Z016_einwärts.csv
Z017_auswärts,Z017,Dübendorfstrasse (Altwiesenstrasse),auswärts,Z017 - Dübendorfstrasse (Altwiesenstrasse) (auswärts),2687080.9,1250340.44,47.39812866392449,8.592176513030354,"[47.39812866392449,8.592176513030354]",data/prepared/profiles/Z017_auswärts.csv
Z017_einwärts,Z017,Dübendorfstrasse (Altwiesenstrasse),einwärts,Z017 - Dübendorfstrasse (Altwiesenstrasse) (einwärts),2687080.72,1250344.37,47.398164031068426,8.592174894204303,"[47.398164031068426,8.592174894204303]",data/prepared/profiles/Z017_einwärts.csv
Z018_auswärts,Z018,Tobelhof-/Dreiwiesenstrasse,auswärts,Z018 - Tobelhof-/Dreiwiesenstrasse (auswärts),2685813.35,1248142.25,47.37852611162638,8.574966121552066,"[47.37852611162638,8.574966121552066]",data/prepared/profiles/Z018_auswärts.csv
Z018_einwärts,Z018,Tobelhof-/Dreiwiesenstrasse,einwärts,Z018 - Tobelhof-/Dreiwiesenstrasse (einwärts),2685849.45,1248148.3,47.378575818313706,8.575445251676445,"[47.378575818313706,8.575445251676445]",data/prepared/profiles/Z018_einwärts.csv
Z019_auswärts,Z019,Witikonerstrasse (Katzenschwanzstrasse),auswärts,Z019 - Witikonerstrasse (Katzenschwanzstrasse) (auswärts),2687630.91,1246201.94,47.36083711637546,8.598650982179922,"[47.36083711637546,8.598650982179922]",data/prepared/profiles/Z019_auswärts.csv
Z019_einwärts,Z019,Witikonerstrasse (Katzenschwanzstrasse),einwärts,Z019 - Witikonerstrasse (Katzenschwanzstrasse) (einwärts),2687628.72,1246207.3,47.36088561169392,8.598623044824578,"[47.36088561169392,8.598623044824578]",data/prepared/profiles/Z019_einwärts.csv
Z020_auswärts,Z020,Forchstrasse (Witellikerstrasse),auswärts,Z020 - Forchstrasse (Witellikerstrasse) (auswärts),2685897.8,1245406.61,47.353912584747505,8.575559426804348,"[47.353912584747505,8.575559426804348]",data/prepared/profiles/Z020_auswärts.csv
Z020_einwärts,Z020,Forchstrasse (Witellikerstrasse),einwärts,Z020 - Forchstrasse (Witellikerstrasse) (einwärts),2685961.74,1245348.47,47.35338137516122,8.576394453999152,"[47.35338137516122,8.576394453999152]",data/prepared/profiles/Z020_einwärts.csv
Z021_auswärts,Z021,Bellerivestrasse (Bahnhof Tiefenbrunnen),auswärts,Z021 - Bellerivestrasse (Bahnhof Tiefenbrunnen) (auswärts),2684868.02,1244845.23,47.34899725993967,8.561824896918994,"[47.34899725993967,8.561824896918994]",data/prepared/profiles/Z021_auswärts.csv
Z021_einwärts,Z021,Bellerivestrasse (Bahnhof Tiefenbrunnen),einwärts,Z021 - Bellerivestrasse (Bahnhof Tiefenbrunnen) (einwärts),2684905.26,1244804.51,47.34862625336168,8.56230997159453,"[47.34862625336168,8.56230997159453]",data/prepared/profiles/Z021_einwärts.csv
Z022_auswärts,Z022,Allmendstrasse (Brunau),auswärts,Z022 - Allmendstrasse (Brunau) (auswärts),2681701.49,1244599.72,47.34718931215961,8.519877593903187,"[47.34718931215961,8.519877593903187]",data/prepared/profiles/Z022_auswärts.csv
Z022_einwärts,Z022,Allmendstrasse (Brunau),einwärts,Z022 - Allmendstrasse (Brunau) (einwärts),2681748.24,1244565.5,47.34687576025359,8.520489970168455,"[47.34687576025359,8.520489970168455]",data/prepared/profiles/Z022_einwärts.csv
Z024_auswärts,Z024,Autobahn A1 (Auschluss Schwamendingen),auswärts,Z024 - Autobahn A1 (Auschluss Schwamendingen) (auswärts),2685383.0,1251656.05,47.41018255900776,8.569938996556107,"[47.41018255900776,8.569938996556107]",data/prepared/profiles/Z024_auswärts.csv
Z024_einwärts,Z024,Autobahn A1 (Auschluss Schwamendingen),einwärts,Z024 - Autobahn A1 (Auschluss Schwamendingen) (einwärts),2685373.47,1251665.11,47.410265273238686,8.56981447309751,"[47.410265273238686,8.56981447309751]",data/prepared/profiles/Z024_einwärts.csv
Z025_Altstetten,Z025,Europabrücke (Winzerstrasse),Altstetten,Z025 - Europabrücke (Winzerstrasse) (Altstetten),2679758.14,1250394.64,47.3995435658477,8.495194593835503,"[47.3995435658477,8.495194593835503]",data/prepared/profiles/Z025_Altstetten.csv
Z025_Höngg,Z025,Europabrücke (Winzerstrasse),Höngg,Z025 - Europabrücke (Winzerstrasse) (Höngg),2679760.06,1250365.74,47.399283424906784,8.495214870982633,"[47.399283424906784,8.495214870982633]",data/prepared/profiles/Z025_Höngg.csv
Z026_Bucheggplatz,Z026,Rosengartenstrasse (Röschibachstrasse),Bucheggplatz,Z026 - Rosengartenstrasse (Röschibachstrasse) (Bucheggplatz),2681913.5,1249607.31,47.39219831344234,8.52359923213398,"[47.39219831344234,8.52359923213398]",data/prepared/profiles/Z026_Bucheggplatz.csv
Z026_Hardplatz,Z026,Rosengartenstrasse,Hardplatz,Z026 - Rosengartenstrasse (Hardplatz),2681940.05,1249609.39,47.392213717538716,8.523951232795994,"[47.392213717538716,8.523951232795994]",data/prepared/profiles/Z026_Hardplatz.csv
Z027_Escher Wyss Platz,Z027,Wipkingerbrücke,Escher Wyss Platz,Z027 - Wipkingerbrücke (Escher Wyss Platz),2681911.35,1249583.44,47.39198390959066,8.52356638726177,"[47.39198390959066,8.52356638726177]",data/prepared/profiles/Z027_Escher Wyss Platz.csv
Z027_Wipkingerplatz,Z027,Wipkingerbrücke,Wipkingerplatz,Z027 - Wipkingerbrücke (Wipkingerplatz),2681960.29,1249649.87,47.39257525016697,8.524226701925894,"[47.39257525016697,8.524226701925894]",data/prepared/profiles/Z027_Wipkingerplatz.csv
Z028_Limmatplatz,Z028,Kornhausbrücke,Limmatplatz,Z028 - Kornhausbrücke (Limmatplatz),2682755.37,1249023.49,47.38684259747994,8.534640667628336,"[47.38684259747994,8.534640667628336]",data/prepared/profiles/Z028_Limmatplatz.csv
Z028_Nord,Z028,Kornhausbrücke,Nord,Z028 - Kornhausbrücke (Nord),2682767.55,1249026.65,47.386869486307575,8.534802543670777,"[47.386869486307575,8.534802543670777]",data/prepared/profiles/Z028_Nord.csv
Z029_Bahnhof,Z029,Walchebrücke,Bahnhof,Z029 - Walchebrücke (Bahnhof),2683297.01,1248118.51,47.378635538237226,8.541644767122648,"[47.378635538237226,8.541644767122648]",data/prepared/profiles/Z029_Bahnhof.csv
Z029_Walcheplatz,Z029,Walchebrücke,Walcheplatz,Z029 - Walchebrücke (Walcheplatz),2683350.45,1248117.8,47.37862239482028,8.54235219446902,"[47.37862239482028,8.54235219446902]",data/prepared/profiles/Z029_Walcheplatz.csv
Z030_Bahnhofquai,Z030,Rudolf Brun-Brücke,Bahnhofquai,Z030 - Rudolf Brun-Brücke (Bahnhofquai),2683386.15,1247648.25,47.37439504566229,8.542737391846446,"[47.37439504566229,8.542737391846446]",data/prepared/profiles/Z030_Bahnhofquai.csv
Z030_Mühlegasse,Z030,Rudolf Brun-Brücke,Mühlegasse,Z030 - Rudolf Brun-Brücke (Mühlegasse),2683325.2,1247645.47,47.374377754318886,8.5419299445841,"[47.374377754318886,8.5419299445841]",data/prepared/profiles/Z030_Mühlegasse.csv
Z031_Bellevue,Z031,Quaibrücke,Bellevue,Z031 - Quaibrücke (Bellevue),2683361.41,1246789.19,47.366672325702964,8.542249889656315,"[47.366672325702964,8.542249889656315]",data/prepared/profiles/Z031_Bellevue.csv
Z031_Bürkliplatz,Z031,Quaibrücke,Bürkliplatz,Z031 - Quaibrücke (Bürkliplatz),2683399.15,1246811.72,47.36687017183801,8.542753661453927,"[47.36687017183801,8.542753661453927]",data/prepared/profiles/Z031_Bürkliplatz.csv
Z032_Oerlikon,Z032,Binzmühlestrasse (Thurgauerstrasse),Oerlikon,Z032 - Binzmühlestrasse (Thurgauerstrasse) (Oerlikon),2683912.36,1252088.07,47.414256870461294,8.550536931540314,"[47.414256870461294,8.550536931540314]",data/prepared/profiles/Z032_Oerlikon.csv
Z032_Schwamendingen,Z032,Binzmühlestrasse (Thurgauerstrasse),Schwamendingen,Z032 - Binzmühlestrasse (Thurgauerstrasse) (Schwamendingen),2683913.58,1252071.86,47.4141109345379,8.550550051996687,"[47.4141109345379,8.550550051996687]",data/prepared/profiles/Z032_Schwamendingen.csv
Z033_auswärts,Z033,Milchbucktunnel (Südportal),auswärts,Z033 - Milchbucktunnel (Südportal) (auswärts),2682974.4,1248893.38,47.38564492330156,8.537517002329835,"[47.38564492330156,8.537517002329835]",data/prepared/profiles/Z033_auswärts.csv
Z033_einwärts,Z033,Milchbucktunnel (Südportal),einwärts,Z033 - Milchbucktunnel (Südportal) (einwärts),2682953.4,1248912.91,47.38582320786505,8.537242540891095,"[47.38582320786505,8.537242540891095]",data/prepared/profiles/Z033_einwärts.csv
Z034_Affoltern,Z034,Emil Klöti-Strasse (Gsteigstrasse),Affoltern,Z034 - Emil Klöti-Strasse (Gsteigstrasse) (Affoltern),2680464.92,1251077.69,47.40560050660545,8.504679198728137,"[47.40560050660545,8.504679198728137]",data/prepared/profiles/Z034_Affoltern.csv
Z034_Bucheggplatz,Z034,Emil Klöti-Strasse (Gsteigstrasse),Bucheggplatz,Z034 - Emil Klöti-Strasse (Gsteigstrasse) (Bucheggplatz),2680448.99,1251086.36,47.40568042500895,8.504469733137643,"[47.40568042500895,8.504469733137643]",data/prepared/profiles/Z034_Bucheggplatz.csv
Z035_Birmensdorferstrasse,Z035,Gutstrasse (Burstwiesenstrasse),Birmensdorferstrasse,Z035 - Gutstrasse (Burstwiesenstrasse) (Birmensdorferstrasse),2680550.91,1247394.08,47.37246187362527,8.505155076379308,"[47.37246187362527,8.505155076379308]",data/prepared/profiles/Z035_Birmensdorferstrasse.csv
Z035_Hubertus,Z035,Gutstrasse (Burstwiesenstrasse),Hubertus,Z035 - Gutstrasse (Burstwiesenstrasse) (Hubertus),2680544.57,1247408.57,47.372592963384974,8.505073749403644,"[47.372592963384974,8.505073749403644]",data/prepared/profiles/Z035_Hubertus.csv
Z036_Albisgütli,Z036,Schweighofstrasse (Hägelerweg),Albisgütli,Z036 - Schweighofstrasse (Hägelerweg) (Albisgütli),2680283.25,1246881.41,47.36788386873381,8.50151963882265,"[47.36788386873381,8.50151963882265]",data/prepared/profiles/Z036_Albisgütli.csv
Z036_Birmensdorferstrasse,Z036,Schweighofstrasse (Hägelerweg),Birmensdorferstrasse,Z036 - Schweighofstrasse (Hägelerweg) (Birmensdorferstrasse),2680283.75,1246891.47,47.36797428191999,8.501528061528308,"[47.36797428191999,8.501528061528308]",data/prepared/profiles/Z036_Birmensdorferstrasse.csv
Z037_Klusplatz,Z037,Bergstrasse (Schneckenmannstrasse),Klusplatz,Z037 - Bergstrasse (Schneckenmannstrasse) (Klusplatz),2684724.39,1247752.19,47.37515910301261,8.560474245027706,"[47.37515910301261,8.560474245027706]",data/prepared/profiles/Z037_Klusplatz.csv
Z037_Vorderberg,Z037,Bergstrasse (Schneckenmannstrasse),Vorderberg,Z037 - Bergstrasse (Schneckenmannstrasse) (Vorderberg),2684723.22,1247762.38,47.37525089552865,8.56046068380948,"[47.37525089552865,8.56046068380948]",data/prepared/profiles/Z037_Vorderberg.csv
Z038_Bucheggplatz,Z038,Rosengartenstrasse (Nordstrasse),Bucheggplatz,Z038 - Rosengartenstrasse (Nordstrasse) (Bucheggplatz),2682070.59,1249909.12,47.39489304028647,8.525735057432787,"[47.39489304028647,8.525735057432787]",data/prepared/profiles/Z038_Bucheggplatz.csv
Z038_Hardbrücke,Z038,Rosengartenstrasse (Nordstrasse),Hardbrücke,Z038 - Rosengartenstrasse (Nordstrasse) (Hardbrücke),2682064.64,1249911.79,47.39491779381528,8.52565674347073,"[47.39491779381528,8.52565674347073]",data/prepared/profiles/Z038_Hardbrücke.csv
Z039_Albisriederplatz und Hohlstrasse,Z039,Hardbrücke (SBB PJZ),Albisriederplatz und Hohlstrasse,Z039 - Hardbrücke (SBB PJZ) (Albisriederplatz und Hohlstrasse),2681286.9,1248596.51,47.38318543249688,8.515117080357289,"[47.38318543249688,8.515117080357289]",data/prepared/profiles/Z039_Albisriederplatz und Hohlstrasse.csv
Z040_Birmensdorferstrasse,Z040,Seebahnstrasse (Kalkbreitestrasse),Birmensdorferstrasse,Z040 - Seebahnstrasse (Kalkbreitestrasse) (Birmensdorferstrasse),2681663.21,1247514.92,47.37341173409184,8.51990261622895,"[47.37341173409184,8.51990261622895]",data/prepared/profiles/Z040_Birmensdorferstrasse.csv
Z040_Hohlstrasse,Z040,Seebahnstrasse (Kalkbreitestrasse),Hohlstrasse,Z040 - Seebahnstrasse (Kalkbreitestrasse) (Hohlstrasse),2681633.58,1247560.63,47.37382649394906,8.519518680146435,"[47.37382649394906,8.519518680146435]",data/prepared/profiles/Z040_Hohlstrasse.csv
Z041_Löwenplatz,Z041,Gessnerallee (Usteribrücke),Löwenplatz,Z041 - Gessnerallee (Usteribrücke) (Löwenplatz),2682889.23,1247807.07,47.37588606955875,8.536187968687782,"[47.37588606955875,8.536187968687782]",data/prepared/profiles/Z041_Löwenplatz.csv
Z041_Selnau,Z041,Gessnerallee (Usteribrücke),Selnau,Z041 - Gessnerallee (Usteribrücke) (Selnau),2682836.17,1247804.28,47.375867650629665,8.535484959459794,"[47.375867650629665,8.535484959459794]",data/prepared/profiles/Z041_Selnau.csv
Z042_Rudolf-Brun-Brücke,Z042,Limmatquai (Rudolf-Brun-Brücke),Rudolf-Brun-Brücke,Z042 - Limmatquai (Rudolf-Brun-Brücke) (Rudolf-Brun-Brücke),2683405.82,1247669.65,47.37458501419838,8.543001794604349,"[47.37458501419838,8.543001794604349]",data/prepared/profiles/Z042_Rudolf-Brun-Brücke.csv
Z043_Central und Mühlegasse,Z043,Seilergraben (Mühlegasse),Central und Mühlegasse,Z043 - Seilergraben (Mühlegasse) (Central und Mühlegasse),2683632.81,1247672.67,47.374583403246596,8.546007535300971,"[47.374583403246596,8.546007535300971]",data/prepared/profiles/Z043_Central und Mühlegasse.csv
Z043_Heimplatz,Z043,Seilergraben (Mühlegasse),Heimplatz,Z043 - Seilergraben (Mühlegasse) (Heimplatz),2683674.15,1247582.01,47.37376281697536,8.546537898294932,"[47.37376281697536,8.546537898294932]",data/prepared/profiles/Z043_Heimplatz.csv
Z044_Brudolf-Brun-Brücke,Z044,Uraniastrasse (Bahnhofstrasse),Brudolf-Brun-Brücke,Z044 - Uraniastrasse (Bahnhofstrasse) (Brudolf-Brun-Brücke),2683078.85,1247647.59,47.37442792621664,8.53866885821706,"[47.37442792621664,8.53866885821706]",data/prepared/profiles/Z044_Brudolf-Brun-Brücke.csv
Z044_Sihlporte,Z044,Uraniastrasse (Bahnhofstrasse),Sihlporte,Z044 - Uraniastrasse (Bahnhofstrasse) (Sihlporte),2683081.42,1247664.83,47.37458264791514,8.538706082943781,"[47.37458264791514,8.538706082943781]",data/prepared/profiles/Z044_Sihlporte.csv
Z045_See,Z045,Talstrasse (Pelikanstrasse),See,Z045 - Talstrasse (Pelikanstrasse) (See),2682833.88,1247221.96,47.37063091313492,8.535346883648968,"[47.37063091313492,8.535346883648968]",data/prepared/profiles/Z045_See.csv
Z045_Sihlporte,Z045,Talstrasse (Pelikanstrasse),Sihlporte,Z045 - Talstrasse (Pelikanstrasse) (Sihlporte),2682837.98,1247228.78,47.37069173265866,8.53540242259822,"[47.37069173265866,8.53540242259822]",data/prepared/profiles/Z045_Sihlporte.csv
Z046_Heimplatz,Z046,Zeltweg (Merkurstrasse),Heimplatz,Z046 - Zeltweg (Merkurstrasse) (Heimplatz),2684191.84,1246842.02,47.36704187975659,8.553252443258863,"[47.36704187975659,8.553252443258863]",data/prepared/profiles/Z046_Heimplatz.csv
Z046_Kreuzplatz,Z046,Zeltweg (Merkurstrasse),Kreuzplatz,Z046 - Zeltweg (Merkurstrasse) (Kreuzplatz),2684205.99,1246807.88,47.366733038291294,8.553433331074576,"[47.366733038291294,8.553433331074576]",data/prepared/profiles/Z046_Kreuzplatz.csv
Z047_Heimplatz,Z047,Hottingerstrasse (Freiestrasse),Heimplatz,Z047 - Hottingerstrasse (Freiestrasse) (Heimplatz),2684379.94,1247093.75,47.369281721373945,8.555789831541052,"[47.369281721373945,8.555789831541052]",data/prepared/profiles/Z047_Heimplatz.csv
Z047_Klusplatz,Z047,Hottingerstrasse (Freiestrasse),Klusplatz,Z047 - Hottingerstrasse (Freiestrasse) (Klusplatz),2684393.48,1247079.64,47.36915309123308,8.555966412934342,"[47.36915309123308,8.555966412934342]",data/prepared/profiles/Z047_Klusplatz.csv
Z048_Bellevue,Z048,Rämistrasse (Stadelhoferstrasse),Bellevue,Z048 - Rämistrasse (Stadelhoferstrasse) (Bellevue),2683639.46,1246923.62,47.36784607618591,8.545955627678723,"[47.36784607618591,8.545955627678723]",data/prepared/profiles/Z048_Bellevue.csv
Z048_Heimplatz,Z048,Rämistrasse (Stadelhoferstrasse),Heimplatz,Z048 - Rämistrasse (Stadelhoferstrasse) (Heimplatz),2683669.44,1246937.44,47.36796655903057,8.546355072694055,"[47.36796655903057,8.546355072694055]",data/prepared/profiles/Z048_Heimplatz.csv
Z049_Bahnhof,Z049,Bahnhofbrücke,Bahnhof,Z049 - Bahnhofbrücke (Bahnhof),2683341.26,1247938.79,47.37701365647778,8.542197182245275,"[47.37701365647778,8.542197182245275]",data/prepared/profiles/Z049_Bahnhof.csv
Z049_Central,Z049,Bahnhofbrücke,Central,Z049 - Bahnhofbrücke (Central),2683409.33,1247916.89,47.37680808858805,8.543094337992263,"[47.37680808858805,8.543094337992263]",data/prepared/profiles/Z049_Central.csv
Z050_Altstetten,Z050,Europabrücke (Max Högger- und Würzgrabenstrasse),Altstetten,Z050 - Europabrücke (Max Högger- und Würzgrabenstrasse) (Altstetten),2679589.59,1249680.65,47.393142768431844,8.492834997891135,"[47.393142768431844,8.492834997891135]",data/prepared/profiles/Z050_Altstetten.csv
Z050_Höngg,Z050,Europabrücke (Max Högger- und Würzgrabenstrasse),Höngg,Z050 - Europabrücke (Max Högger- und Würzgrabenstrasse) (Höngg),2679597.69,1249679.24,47.39312910903473,8.49294202326319,"[47.39312910903473,8.49294202326319]",data/prepared/profiles/Z050_Höngg.csv
Z051_Affoltern,Z051,Seebacherstrasse (Binzmühlestrasse),Affoltern,Z051 - Seebacherstrasse (Binzmühlestrasse) (Affoltern),2681644.06,1252105.94,47.41470274453062,8.520487091879131,"[47.41470274453062,8.520487091879131]",data/prepared/profiles/Z051_Affoltern.csv
Z051_Seebach,Z051,Seebacherstrasse (Binzmühlestrasse),Seebach,Z051 - Seebacherstrasse (Binzmühlestrasse) (Seebach),2681647.71,1252103.54,47.41468070805047,8.520535013338407,"[47.41468070805047,8.520535013338407]",data/prepared/profiles/Z051_Seebach.csv
Z052_Hardbrücke,Z052,Hirschwiesentunnel,Hardbrücke,Z052 - Hirschwiesentunnel (Hardbrücke),2682982.87,1250316.11,47.39843892942238,8.537893096254667,"[47.39843892942238,8.537893096254667]",data/prepared/profiles/Z052_Hardbrücke.csv
Z052_Winterthur,Z052,Hirschwiesentunnel,Winterthur,Z052 - Hirschwiesentunnel (Winterthur),2682984.46,1250310.11,47.398384769254974,8.537913042755346,"[47.398384769254974,8.537913042755346]",data/prepared/profiles/Z052_Winterthur.csv
Z053_Autobahn,Z053,Birchstrasse (Eichraintunnel),Autobahn,Z053 - Birchstrasse (Eichraintunnel) (Autobahn),2683601.774,1253567.667,47.42760273254681,8.546698776319129,"[47.42760273254681,8.546698776319129]",data/prepared/profiles/Z053_Autobahn.csv
Z053_Glatttalstrasse,Z053,Birchstrasse (Eichraintunnel),Glatttalstrasse,Z053 - Birchstrasse (Eichraintunnel) (Glatttalstrasse),2683567.367,1253559.362,47.42753241272731,8.546241246093356,"[47.42753241272731,8.546241246093356]",data/prepared/profiles/Z053_Glatttalstrasse.csv
Z054_Heimplatz,Z054,Rämistrasse (Kantonsschul- und Zürichbergstrasse),Heimplatz,Z054 - Rämistrasse (Kantonsschul- und Zürichbergstrasse) (Heimplatz),2683969.38,1247478.98,47.37279867615613,8.550427130311189,"[47.37279867615613,8.550427130311189]",data/prepared/profiles/Z054_Heimplatz.csv
Z054_Universität,Z054,Rämistrasse (Kantonsschul- und Zürichbergstrasse),Universität,Z054 - Rämistrasse (Kantonsschul- und Zürichbergstrasse) (Universität),2683959.68,1247473.33,47.37274909967517,8.550297654309382,"[47.37274909967517,8.550297654309382]",data/prepared/profiles/Z054_Universität.csv
Z055_Hegibachplatz,Z055,Höschgasse (Zollikerstrasse),Hegibachplatz,Z055 - Höschgasse (Zollikerstrasse) (Hegibachplatz),2684538.56,1245994.09,47.35937174432792,8.557682015914647,"[47.35937174432792,8.557682015914647]",data/prepared/profiles/Z055_Hegibachplatz.csv
Z055_See,Z055,Höschgasse (Zollikerstrasse),See,Z055 - Höschgasse (Zollikerstrasse) (See),2684533.15,1245997.77,47.359405533846534,8.557611106793026,"[47.359405533846534,8.557611106793026]",data/prepared/profiles/Z055_See.csv
Z056_Zollikon,Z056,Zollikerstrasse (Höschgasse),Zollikon,Z056 - Zollikerstrasse (Höschgasse) (Zollikon),2684570.33,1245963.48,47.3590923812794,8.558096725619858,"[47.3590923812794,8.558096725619858]",data/prepared/profiles/Z056_Zollikon.csv
Z056_einwärts,Z056,Zollikerstrasse (Höschgasse),einwärts,Z056 - Zollikerstrasse (Höschgasse) (einwärts),2684575.79,1245967.47,47.35912756428337,8.55816974420174,"[47.35912756428337,8.55816974420174]",data/prepared/profiles/Z056_einwärts.csv
Z057_See,Z057,Stockerstrasse (Dreikönigstrasse),See,Z057 - Stockerstrasse (Dreikönigstrasse) (See),2682812.4,1246821.41,47.36703130913556,8.534988435783523,"[47.36703130913556,8.534988435783523]",data/prepared/profiles/Z057_See.csv
Z057_Stauffacherplatz,Z057,Stockerstrasse (Dreikönigstrasse),Stauffacherplatz,Z057 - Stockerstrasse (Dreikönigstrasse) (Stauffacherplatz),2682816.79,1246823.7,47.36705135236253,8.535046971519535,"[47.36705135236253,8.535046971519535]",data/prepared/profiles/Z057_Stauffacherplatz.csv
Z058_Hauptbahnhof,Z058,Stampfenbachstrasse (Wasserwerkstrasse),Hauptbahnhof,Z058 - Stampfenbachstrasse (Wasserwerkstrasse) (Hauptbahnhof),2683370.8,1248325.77,47.38049016749406,8.542660377001537,"[47.38049016749406,8.542660377001537]",data/prepared/profiles/Z058_Hauptbahnhof.csv
Z058_Schaffhauserplatz,Z058,Stampfenbachstrasse (Wasserwerkstrasse),Schaffhauserplatz,Z058 - Stampfenbachstrasse (Wasserwerkstrasse) (Schaffhauserplatz),2683379.96,1248329.67,47.3805240824023,8.542782388658894,"[47.3805240824023,8.542782388658894]",data/prepared/profiles/Z058_Schaffhauserplatz.csv
Z059_Central,Z059,Neumühlequai (Sanität),Central,Z059 - Neumühlequai (Sanität) (Central),2683200.49,1248492.25,47.38200890913023,8.540436301327434,"[47.38200890913023,8.540436301327434]",data/prepared/profiles/Z059_Central.csv
Z059_Milchbucktunnel,Z059,Neumühlequai (Sanität),Milchbucktunnel,Z059 - Neumühlequai (Sanität) (Milchbucktunnel),2683238.97,1248431.3,47.381455904064104,8.54093448149524,"[47.381455904064104,8.54093448149524]",data/prepared/profiles/Z059_Milchbucktunnel.csv
Z061_Hohlstrasse,Z061,Duttweiler Brücke,Hohlstrasse,Z061 - Duttweiler Brücke (Hohlstrasse),2681022.02,1249303.64,47.38957755009626,8.511737732884527,"[47.38957755009626,8.511737732884527]",data/prepared/profiles/Z061_Hohlstrasse.csv
Z061_Pfingstweidstrasse,Z061,Duttweiler Brücke,Pfingstweidstrasse,Z061 - Duttweiler Brücke (Pfingstweidstrasse),2681041.14,1249300.71,47.38954884764983,8.511990409303692,"[47.38954884764983,8.511990409303692]",data/prepared/profiles/Z061_Pfingstweidstrasse.csv
Z062_Allmend,Z062,Brunaustrasse (Rieterstrasse),Allmend,Z062 - Brunaustrasse (Rieterstrasse) (Allmend),2682141.89,1245399.4,47.354326475873975,8.5258517991825,"[47.354326475873975,8.5258517991825]",data/prepared/profiles/Z062_Allmend.csv
Z062_Enge,Z062,Brunaustrasse (Rieterstrasse),Enge,Z062 - Brunaustrasse (Rieterstrasse) (Enge),2682150.75,1245401.35,47.35434290898582,8.525969412334401,"[47.35434290898582,8.525969412334401]",data/prepared/profiles/Z062_Enge.csv
Z063_Albisriederplatz,Z063,Albisriederstrasse (Hubertus),Albisriederplatz,Z063 - Albisriederstrasse (Hubertus) (Albisriederplatz),2680119.19,1247929.69,47.37733147658815,8.499535478505594,"[47.37733147658815,8.499535478505594]",data/prepared/profiles/Z063_Albisriederplatz.csv
Z063_Hubertus,Z063,Albisriederstrasse (Hubertus),Hubertus,Z063 - Albisriederstrasse (Hubertus) (Hubertus),2680111.39,1247945.02,47.3774702941806,8.499434950111368,"[47.3774702941806,8.499434950111368]",data/prepared/profiles/Z063_Hubertus.csv
Z064_Birmensdorferstrasse,Z064,Gutstrasse (Hubertus),Birmensdorferstrasse,Z064 - Gutstrasse (Hubertus) (Birmensdorferstrasse),2680149.561,1247829.965,47.376430913531586,8.499919733821812,"[47.376430913531586,8.499919733821812]",data/prepared/profiles/Z064_Birmensdorferstrasse.csv
Z064_Hubertus,Z064,Gutstrasse (Hubertus),Hubertus,Z064 - Gutstrasse (Hubertus) (Hubertus),2680149.109,1247840.135,47.376522431673855,8.499915570538995,"[47.376522431673855,8.499915570538995]",data/prepared/profiles/Z064_Hubertus.csv
Z065_auswärts,Z065,Hardturmstrasse (Fischerweg),auswärts,Z065 - Hardturmstrasse (Fischerweg) (auswärts),2681559.27,1249548.02,47.39170905109492,8.518897109793633,"[47.39170905109492,8.518897109793633]",data/prepared/profiles/Z065_auswärts.csv
Z065_einwärts,Z065,Hardturmstrasse (Fischerweg),einwärts,Z065 - Hardturmstrasse (Fischerweg) (einwärts),2681566.35,1249538.12,47.39161914024379,8.51898906908272,"[47.39161914024379,8.51898906908272]",data/prepared/profiles/Z065_einwärts.csv
Z066_Helvetiaplatz,Z066,Stauffacherstrasse (Feldstrasse),Helvetiaplatz,Z066 - Stauffacherstrasse (Feldstrasse) (Helvetiaplatz),2681813.28,1247994.07,47.377702304772555,8.521976974651158,"[47.377702304772555,8.521976974651158]",data/prepared/profiles/Z066_Helvetiaplatz.csv
Z066_Seebahnstrasse,Z066,Stauffacherstrasse (Feldstrasse),Seebahnstrasse,Z066 - Stauffacherstrasse (Feldstrasse) (Seebahnstrasse),2681828.48,1247992.53,47.377686567459335,8.52217794226699,"[47.377686567459335,8.52217794226699]",data/prepared/profiles/Z066_Seebahnstrasse.csv
Z067_A3 und Schimmelstrasse,Z067,Manessestrasse (Stauffacherquai),A3 und Schimmelstrasse,Z067 - Manessestrasse (Stauffacherquai) (A3 und Schimmelstrasse),2682225.55,1247066.11,47.36930547708145,8.527264999763277,"[47.36930547708145,8.527264999763277]",data/prepared/profiles/Z067_A3 und Schimmelstrasse.csv
Z068_Bahnhof Wiedikon,Z068,Schimmelstrasse (Werdstrasse),Bahnhof Wiedikon,Z068 - Schimmelstrasse (Werdstrasse) (Bahnhof Wiedikon),2682054.0,1247168.0,47.37024319765525,8.525012698125085,"[47.37024319765525,8.525012698125085]",data/prepared/profiles/Z068_Bahnhof Wiedikon.csv
Z068_Manessestrasse,Z068,Schimmelstrasse (Werdstrasse),Manessestrasse,Z068 - Schimmelstrasse (Werdstrasse) (Manessestrasse),2682050.28,1247164.9,47.37021578127958,8.524962883805927,"[47.37021578127958,8.524962883805927]",data/prepared/profiles/Z068_Manessestrasse.csv
Z069_Badenerstrasse,Z069,Seebahnstrasse (Stauffacherstrasse),Badenerstrasse,Z069 - Seebahnstrasse (Stauffacherstrasse) (Badenerstrasse),2681612.0,1248083.0,47.37852704850412,8.519328226892359,"[47.37852704850412,8.519328226892359]",data/prepared/profiles/Z069_Badenerstrasse.csv
Z069_Hohlstrasse,Z069,Seebahnstrasse (Stauffacherstrasse),Hohlstrasse,Z069 - Seebahnstrasse (Stauffacherstrasse) (Hohlstrasse),2681637.49,1248112.09,47.37878550851512,8.519671028153146,"[47.37878550851512,8.519671028153146]",data/prepared/profiles/Z069_Hohlstrasse.csv
Z070_Hardplatz,Z070,Hohlstrasse (Erismannstrasse),Hardplatz,Z070 - Hohlstrasse (Erismannstrasse) (Hardplatz),2681629.07,1248307.08,47.38054017249113,8.519595110234201,"[47.38054017249113,8.519595110234201]",data/prepared/profiles/Z070_Hardplatz.csv
Z070_Seebahnstrasse,Z070,Hohlstrasse (Erismannstrasse),Seebahnstrasse,Z070 - Hohlstrasse (Erismannstrasse) (Seebahnstrasse),2681629.46,1248290.46,47.380390654096914,8.519597242575475,"[47.380390654096914,8.519597242575475]",data/prepared/profiles/Z070_Seebahnstrasse.csv
Z071_Albisriederplatz,Z071,Badenerstrasse (Zypressenstrasse),Albisriederplatz,Z071 - Badenerstrasse (Zypressenstrasse) (Albisriederplatz),2681183.65,1247898.67,47.376922211415916,8.513623307969935,"[47.376922211415916,8.513623307969935]",data/prepared/profiles/Z071_Albisriederplatz.csv
Z071_Seebahnstrasse,Z071,Badenerstrasse (Zypressenstrasse),Seebahnstrasse,Z071 - Badenerstrasse (Zypressenstrasse) (Seebahnstrasse),2681175.41,1247887.5,47.37682277025372,8.513512185320067,"[47.37682277025372,8.513512185320067]",data/prepared/profiles/Z071_Seebahnstrasse.csv
Z072_auswärts,Z072,Manessestrasse (Weststrasse),auswärts,Z072 - Manessestrasse (Weststrasse) (auswärts),2682047.59,1247026.35,47.36897007960429,8.524901881687528,"[47.36897007960429,8.524901881687528]",data/prepared/profiles/Z072_auswärts.csv
Z072_einwärts,Z072,Manessestrasse (Weststrasse),einwärts,Z072 - Manessestrasse (Weststrasse) (einwärts),2682055.0,1247019.0,47.368903055450986,8.524998627443635,"[47.368903055450986,8.524998627443635]",data/prepared/profiles/Z072_einwärts.csv
Z073_See,Z073,Stauffacherbrücke,See,Z073 - Stauffacherbrücke (See),2682474.28,1247275.42,47.37115680332746,8.530596239868975,"[47.37115680332746,8.530596239868975]",data/prepared/profiles/Z073_See.csv
Z073_Stauffacher,Z073,Stauffacherbrücke,Stauffacher,Z073 - Stauffacherbrücke (Stauffacher),2682509.27,1247271.02,47.37111285231324,8.531058641560062,"[47.37111285231324,8.531058641560062]",data/prepared/profiles/Z073_Stauffacher.csv
Z074_Hauptbahnhof,Z074,Stauffacherquai (Stauffacherbrücke),Hauptbahnhof,Z074 - Stauffacherquai (Stauffacherbrücke) (Hauptbahnhof),2682467.01,1247308.4,47.37145431528711,8.530506071864163,"[47.37145431528711,8.530506071864163]",data/prepared/profiles/Z074_Hauptbahnhof.csv
Z075_See,Z075,Stauffacherstrasse (Stauffacherbrücke),See,Z075 - Stauffacherstrasse (Stauffacherbrücke) (See),2682475.72,1247274.81,47.371151137133154,8.53061519082687,"[47.371151137133154,8.53061519082687]",data/prepared/profiles/Z075_See.csv
Z075_Stauffacher,Z075,Stauffacherstrasse (Stauffacherbrücke),Stauffacher,Z075 - Stauffacherstrasse (Stauffacherbrücke) (Stauffacher),2682438.72,1247315.24,47.37151936981992,8.530132814144691,"[47.37151936981992,8.530132814144691]",data/prepared/profiles/Z075_Stauffacher.csv
Z076_auswärts,Z076,Pfingstweidstrasse (Sportweg),auswärts,Z076 - Pfingstweidstrasse (Sportweg) (auswärts),2680534.0,1249530.0,47.39167313281813,8.505315600321229,"[47.39167313281813,8.505315600321229]",data/prepared/profiles/Z076_auswärts.csv
Z076_einwärts,Z076,Pfingstweidstrasse (Sportweg),einwärts,Z076 - Pfingstweidstrasse (Sportweg) (einwärts),2680408.0,1249570.0,47.39204825997651,8.503654097423942,"[47.39204825997651,8.503654097423942]",data/prepared/profiles/Z076_einwärts.csv
Z077_Manessestrasse,Z077,Sihlhölzlibrücke (Ulmbergtunnel),Manessestrasse,Z077 - Sihlhölzlibrücke (Ulmbergtunnel) (Manessestrasse),2682331.58,1247014.38,47.36882701019932,8.528659109308855,"[47.36882701019932,8.528659109308855]",data/prepared/profiles/Z077_Manessestrasse.csv
Z078_auswärts,Z078,Birmensdorferstrasse (Wasserschöpfi),auswärts,Z078 - Birmensdorferstrasse (Wasserschöpfi) (auswärts),2680570.0,1247051.0,47.36937407227268,8.505346061025707,"[47.36937407227268,8.505346061025707]",data/prepared/profiles/Z078_auswärts.csv
Z078_einwärts,Z078,Birmensdorferstrasse (Wasserschöpfi),einwärts,Z078 - Birmensdorferstrasse (Wasserschöpfi) (einwärts),2680627.0,1247048.0,47.3693401207719,8.506100089309687,"[47.3693401207719,8.506100089309687]",data/prepared/profiles/Z078_einwärts.csv
Z079_Uetlibergtunnel,Z079,A3W (A4 Uetlibergtunnel Brunau),Uetlibergtunnel,Z079 - A3W (A4 Uetlibergtunnel Brunau) (Uetlibergtunnel),2681711.03,1244591.58,47.347114922947426,8.520002347569006,"[47.347114922947426,8.520002347569006]",data/prepared/profiles/Z079_Uetlibergtunnel.csv
Z079_einwärts,Z079,A3W (A4 Uetlibergtunnel Brunau),einwärts,Z079 - A3W (A4 Uetlibergtunnel Brunau) (einwärts),2681737.76,1244573.5,47.346949007453595,8.52035275371031,"[47.346949007453595,8.52035275371031]",data/prepared/profiles/Z079_einwärts.csv
Z080_Chur,Z080,A3W (Chur Brunau),Chur,Z080 - A3W (Chur Brunau) (Chur),2681720.14,1244585.09,47.34705542613411,8.520121711850527,"[47.34705542613411,8.520121711850527]",data/prepared/profiles/Z080_Chur.csv
Z080_einwärts,Z080,A3W (Chur Brunau),einwärts,Z080 - A3W (Chur Brunau) (einwärts),2681728.49,1244579.52,47.34700429740876,8.520231187005958,"[47.34700429740876,8.520231187005958]",data/prepared/profiles/Z080_einwärts.csv
Z081_Hardbrücke,Z081,Pfingstweidstrasse (Welti Furrer Ausfahrt),Hardbrücke,Z081 - Pfingstweidstrasse (Welti Furrer Ausfahrt) (Hardbrücke),2681492.61,1249103.94,47.38772352840563,8.517933398837576,"[47.38772352840563,8.517933398837576]",data/prepared/profiles/Z081_Hardbrücke.csv
Z081_auswärts,Z081,Pfingstweidstrasse (Welti Furrer Ausfahrt),auswärts,Z081 - Pfingstweidstrasse (Welti Furrer Ausfahrt) (auswärts),2681455.2,1249140.27,47.38805488411203,8.517444608368994,"[47.38805488411203,8.517444608368994]",data/prepared/profiles/Z081_auswärts.csv
Z082_Albissriederplatz,Z082,Hardbrücke (Hardstrasse),Albissriederplatz,Z082 - Hardbrücke (Hardstrasse) (Albissriederplatz),2681286.9,1248596.51,47.38318543249688,8.515117080357289,"[47.38318543249688,8.515117080357289]",data/prepared/profiles/Z082_Albissriederplatz.csv
Z082_Bucheggplatz,Z082,Hardbrücke (Hardstrasse),Bucheggplatz,Z082 - Hardbrücke (Hardstrasse) (Bucheggplatz),2681290.57,1248593.98,47.38316222642134,8.515165216890997,"[47.38316222642134,8.515165216890997]",data/prepared/profiles/Z082_Bucheggplatz.csv
Z083_Bucheggplatz,Z083,Hardbrücke Rampen (Hohlstrasse),Bucheggplatz,Z083 - Hardbrücke Rampen (Hohlstrasse) (Bucheggplatz),2681323.95,1248627.21,47.383456957178055,8.515613255748413,"[47.383456957178055,8.515613255748413]",data/prepared/profiles/Z083_Bucheggplatz.csv
Z083_Hohlstrasse,Z083,Hardbrücke Rampen (Hohlstrasse),Hohlstrasse,Z083 - Hardbrücke Rampen (Hohlstrasse) (Hohlstrasse),2681302.84,1248632.97,47.38351136445932,8.51533477373783,"[47.38351136445932,8.51533477373783]",data/prepared/profiles/Z083_Hohlstrasse.csv
Z084_Bleicherweg,Z084,Angererstrasse Tunnelstrasse (Ulmbergtunnel),Bleicherweg,Z084 - Angererstrasse Tunnelstrasse (Ulmbergtunnel) (Bleicherweg),2682555.0,1246755.0,47.366466351300716,8.531568883645788,"[47.366466351300716,8.531568883645788]",data/prepared/profiles/Z084_Bleicherweg.csv
Z084_Sihlhölzli,Z084,Angererstrasse Tunnelstrasse (Ulmbergtunnel),Sihlhölzli,Z084 - Angererstrasse Tunnelstrasse (Ulmbergtunnel) (Sihlhölzli),2682575.0,1246766.0,47.36656277312665,8.531835657530305,"[47.36656277312665,8.531835657530305]",data/prepared/profiles/Z084_Sihlhölzli.csv
Z085_See,Z085,Alfred-Escher-Strasse (Ulmbergtunnel),See,Z085 - Alfred-Escher-Strasse (Ulmbergtunnel) (See),2682562.0,1246759.0,47.36650144802103,8.531662282054508,"[47.36650144802103,8.531662282054508]",data/prepared/profiles/Z085_See.csv
Z085_Sihlhölzli,Z085,Alfred-Escher-Strasse (Ulmbergtunnel),Sihlhölzli,Z085 - Alfred-Escher-Strasse (Ulmbergtunnel) (Sihlhölzli),2682568.0,1246765.0,47.36655465676169,8.531742812120694,"[47.36655465676169,8.531742812120694]",data/prepared/profiles/Z085_Sihlhölzli.csv
Z086_Affoltern,Z086,Binzmuehlestrasse (Seebacherstrasse),Affoltern,Z086 - Binzmuehlestrasse (Seebacherstrasse) (Affoltern),2681645.0,1252090.0,47.414559274953234,8.520496634375954,"[47.414559274953234,8.520496634375954]",data/prepared/profiles/Z086_Affoltern.csv
Z086_Oerlikon,Z086,Binzmuehlestrasse (Seebacherstrasse),Oerlikon,Z086 - Binzmuehlestrasse (Seebacherstrasse) (Oerlikon),2681650.0,1252084.0,47.41450469522589,8.520561784516536,"[47.41450469522589,8.520561784516536]",data/prepared/profiles/Z086_Oerlikon.csv
Z087_Affoltern,Z087,Wehntalerstrasse (Nordheimstrasse),Affoltern,Z087 - Wehntalerstrasse (Nordheimstrasse) (Affoltern),2682671.0,1250955.0,47.404223880928235,8.533880431162403,"[47.404223880928235,8.533880431162403]",data/prepared/profiles/Z087_Affoltern.csv
Z087_einwärts,Z087,Wehntalerstrasse (Nordheimstrasse),einwärts,Z087 - Wehntalerstrasse (Nordheimstrasse) (einwärts),2682668.0,1250941.0,47.404098351353205,8.53383810273051,"[47.404098351353205,8.53383810273051]",data/prepared/profiles/Z087_einwärts.csv
Z088_Affoltern,Z088,Regensbergstrasse (Birchstrasse),Affoltern,Z088 - Regensbergstrasse (Birchstrasse) (Affoltern),2682930.0,1251564.0,47.40966822729527,8.537424278824602,"[47.40966822729527,8.537424278824602]",data/prepared/profiles/Z088_Affoltern.csv
Z088_Oerlikon,Z088,Regensbergstrasse (Birchstrasse),Oerlikon,Z088 - Regensbergstrasse (Birchstrasse) (Oerlikon),2682940.0,1251551.0,47.40955005526877,8.537554346738862,"[47.40955005526877,8.537554346738862]",data/prepared/profiles/Z088_Oerlikon.csv
Z089_auswärts,Z089,Wallisellenstrasse (Saatlenstrasse),auswärts,Z089 - Wallisellenstrasse (Saatlenstrasse) (auswärts),2684870.0,1251725.0,47.41086896104801,8.56315583371858,"[47.41086896104801,8.56315583371858]",data/prepared/profiles/Z089_auswärts.csv
Z089_einwärts,Z089,Wallisellenstrasse (Saatlenstrasse),einwärts,Z089 - Wallisellenstrasse (Saatlenstrasse) (einwärts),2684856.0,1251730.0,47.410915731484046,8.56297130768755,"[47.410915731484046,8.56297130768755]",data/prepared/profiles/Z089_einwärts.csv
Z090_auswärts,Z090,Winterthurerstrasse (Luchswiesenstrasse),auswärts,Z090 - Winterthurerstrasse (Luchswiesenstrasse) (auswärts),2686466.0,1251268.0,47.40655142737108,8.584211530000251,"[47.40655142737108,8.584211530000251]",data/prepared/profiles/Z090_auswärts.csv
Z090_einwärts,Z090,Winterthurerstrasse (Luchswiesenstrasse),einwärts,Z090 - Winterthurerstrasse (Luchswiesenstrasse) (einwärts),2686453.0,1251269.0,47.40656212739204,8.584039511034177,"[47.40656212739204,8.584039511034177]",data/prepared/profiles/Z090_einwärts.csv
Z091_Talstrasse,Z091,Dreikönigstrasse (Genferstrasse),Talstrasse,Z091 - Dreikönigstrasse (Genferstrasse) (Talstrasse),2682703.0,1246710.0,47.3660430921639,8.533519686016596,"[47.3660430921639,8.533519686016596]",data/prepared/profiles/Z091_Talstrasse.csv
Z092_auswärts,Z092,Am Wasser (Hardeggstrasse),auswärts,Z092 - Am Wasser (Hardeggstrasse) (auswärts),2680353.27,1250146.37,47.39723844855568,8.50303281319898,"[47.39723844855568,8.50303281319898]",data/prepared/profiles/Z092_auswärts.csv
Z092_einwärts,Z092,Am Wasser (Hardeggstrasse),einwärts,Z092 - Am Wasser (Hardeggstrasse) (einwärts),2680351.25,1250143.93,47.397216751165004,8.50300561996929,"[47.397216751165004,8.50300561996929]",data/prepared/profiles/Z092_einwärts.csv
Z093_auswärts,Z093,Hardturmstrasse (Bernoullihäuser),auswärts,Z093 - Hardturmstrasse (Bernoullihäuser) (auswärts),2680756.38,1249768.58,47.39379154655607,8.508303780652897,"[47.39379154655607,8.508303780652897]",data/prepared/profiles/Z093_auswärts.csv
Z093_einwärts,Z093,Hardturmstrasse (Bernoullihäuser),einwärts,Z093 - Hardturmstrasse (Bernoullihäuser) (einwärts),2680804.49,1249763.88,47.39374337783941,8.508940105690792,"[47.39374337783941,8.508940105690792]",data/prepared/profiles/Z093_einwärts.csv
Z095_Oerlikon,Z095,Schwamendingerstrasse (Dörflistrasse),Oerlikon,Z095 - Schwamendingerstrasse (Dörflistrasse) (Oerlikon),2683962.29,1251255.28,47.40676101592693,8.551042032583728,"[47.40676101592693,8.551042032583728]",data/prepared/profiles/Z095_Oerlikon.csv
Z095_Schwamendingen,Z095,Schwamendingerstrasse (Dörflistrasse),Schwamendingen,Z095 - Schwamendingerstrasse (Dörflistrasse) (Schwamendingen),2683960.76,1251252.12,47.40673279229068,8.551021170849818,"[47.40673279229068,8.551021170849818]",data/prepared/profiles/Z095_Schwamendingen.csv
Z096_auswärts,Z096,Katzenschwanzstrasse (Witikonerstrasse),auswärts,Z096 - Katzenschwanzstrasse (Witikonerstrasse) (auswärts),2687489.57,1246167.45,47.360545714489575,8.596773509501578,"[47.360545714489575,8.596773509501578]",data/prepared/profiles/Z096_auswärts.csv
Z096_einwärts,Z096,Katzenschwanzstrasse (Witikonerstrasse),einwärts,Z096 - Katzenschwanzstrasse (Witikonerstrasse) (einwärts),2687484.89,1246164.33,47.360518276582134,8.596710957238347,"[47.360518276582134,8.596710957238347]",data/prepared/profiles/Z096_einwärts.csv
Z097_Bucheggplatz,Z097,Hofwiesenstrasse (Brunnenhofweg),Bucheggplatz,Z097 - Hofwiesenstrasse (Brunnenhofweg) (Bucheggplatz),2682704.5,1250615.65,47.40116779828503,8.534261426307614,"[47.40116779828503,8.534261426307614]",data/prepared/profiles/Z097_Bucheggplatz.csv
Z097_Oerlikon,Z097,Hofwiesenstrasse (Brunnenhofweg),Oerlikon,Z097 - Hofwiesenstrasse (Brunnenhofweg) (Oerlikon),2682722.32,1250622.32,47.40122554565332,8.534498701871692,"[47.40122554565332,8.534498701871692]",data/prepared/profiles/Z097_Oerlikon.csv
Z098_Letzigrund,Z098,Letzigraben (Hubertus),Letzigrund,Z098 - Letzigraben (Hubertus) (Letzigrund),2680065.92,1247982.342,47.37781147351969,8.498839600449452,"[47.37781147351969,8.498839600449452]",data/prepared/profiles/Z098_Letzigrund.csv
Z098_auswärts,Z098,Letzigraben (Hubertus),auswärts,Z098 - Letzigraben (Hubertus) (auswärts),2680054.761,1247971.654,47.37771670763339,8.498689941808433,"[47.37771670763339,8.498689941808433]",data/prepared/profiles/Z098_auswärts.csv
Z099_auswärts,Z099,Albisriederstrasse (Freilagerstrasse),auswärts,Z099 - Albisriederstrasse (Freilagerstrasse) (auswärts),2679605.908,1247992.186,47.37795574107705,8.49275071308092,"[47.37795574107705,8.49275071308092]",data/prepared/profiles/Z099_auswärts.csv
Z099_einwärts,Z099,Albisriederstrasse (Freilagerstrasse),einwärts,Z099 - Albisriederstrasse (Freilagerstrasse) (einwärts),2679611.727,1247985.555,47.3778954025705,8.492826578362257,"[47.3778954025705,8.492826578362257]",data/prepared/profiles/Z099_einwärts.csv
Z100_Albisriederstrasse,Z100,Rautistrasse (Luggwegstrasse),Albisriederstrasse,Z100 - Rautistrasse (Luggwegstrasse) (Albisriederstrasse),2679274.175,1248454.831,47.38215650348418,8.488440446198242,"[47.38215650348418,8.488440446198242]",data/prepared/profiles/Z100_Albisriederstrasse.csv
Z100_Altstetter-_Luggwegstrasse,Z100,Rautistrasse (Luggwegstrasse),Altstetter-/Luggwegstrasse,Z100 - Rautistrasse (Luggwegstrasse) (Altstetter-/Luggwegstrasse),2679266.719,1248465.663,47.382254817375326,8.48834363803874,"[47.382254817375326,8.48834363803874]",data/prepared/profiles/Z100_Altstetter-_Luggwegstrasse.csv
Z101_auswärts,Z101,Altstetterstrasse (Algirstrasse),auswärts,Z101 - Altstetterstrasse (Algirstrasse) (auswärts),2678911.0,1248430.0,47.38197678406635,8.483627168089038,"[47.38197678406635,8.483627168089038]",data/prepared/profiles/Z101_auswärts.csv
Z101_einwärts,Z101,Altstetterstrasse (Algirstrasse),einwärts,Z101 - Altstetterstrasse (Algirstrasse) (einwärts),2678914.0,1248430.0,47.381976424759245,8.483666891775396,"[47.381976424759245,8.483666891775396]",data/prepared/profiles/Z101_einwärts.csv
Z102_auswärts,Z102,Badenerstrasse (Farbhof),auswärts,Z102 - Badenerstrasse (Farbhof) (auswärts),2678637.0,1249346.0,47.390247526900005,8.480160055951567,"[47.390247526900005,8.480160055951567]",data/prepared/profiles/Z102_auswärts.csv
Z102_einwärts,Z102,Badenerstrasse (Farbhof),einwärts,Z102 - Badenerstrasse (Farbhof) (einwärts),2678632.0,1249335.0,47.390149196097475,8.48009190606212,"[47.390149196097475,8.48009190606212]",data/prepared/profiles/Z102_einwärts.csv
Z103_auswärts,Z103,Hohlstrasse (Farbhof),auswärts,Z103 - Hohlstrasse (Farbhof) (auswärts),2678736.674,1249525.658,47.39185136055041,8.481511688460825,"[47.39185136055041,8.481511688460825]",data/prepared/profiles/Z103_auswärts.csv
Z103_einwärts,Z103,Hohlstrasse (Farbhof),einwärts,Z103 - Hohlstrasse (Farbhof) (einwärts),2678790.668,1249531.613,47.391898460536666,8.482227817001686,"[47.391898460536666,8.482227817001686]",data/prepared/profiles/Z103_einwärts.csv
Z104_Altstetten,Z104,Bändliweg (Bändlistrasse),Altstetten,Z104 - Bändliweg (Bändlistrasse) (Altstetten),2679019.898,1249981.167,47.39591402336358,8.485343085960778,"[47.39591402336358,8.485343085960778]",data/prepared/profiles/Z104_Altstetten.csv
Z104_Höngg_Europabrücke,Z104,Bändliweg (Bändlistrasse),Höngg/Europabrücke,Z104 - Bändliweg (Bändlistrasse) (Höngg/Europabrücke),2679022.818,1249979.16,47.39589562331733,8.485381405866594,"[47.39589562331733,8.485381405866594]",data/prepared/profiles/Z104_Höngg_Europabrücke.csv
Z105_Forchstrasse,Z105,Lenggstrasse (Lengghalde),Forchstrasse,Z105 - Lenggstrasse (Lengghalde) (Forchstrasse),2685785.92,1245472.68,47.3545213464431,8.574091455393893,"[47.3545213464431,8.574091455393893]",data/prepared/profiles/Z105_Forchstrasse.csv
Z105_Südstrasse,Z105,Lenggstrasse (Lengghalde),Südstrasse,Z105 - Lenggstrasse (Lengghalde) (Südstrasse),2685783.86,1245475.61,47.3545479651041,8.574064754077387,"[47.3545479651041,8.574064754077387]",data/prepared/profiles/Z105_Südstrasse.csv
Z106_Zoo,Z106,Zürichbergstrasse (Dreiwiesenstrasse),Zoo,Z106 - Zürichbergstrasse (Dreiwiesenstrasse) (Zoo),2685564.753,1248487.685,47.381665044175094,8.571740704913664,"[47.381665044175094,8.571740704913664]",data/prepared/profiles/Z106_Zoo.csv
Z106_einwärts,Z106,Zürichbergstrasse (Dreiwiesenstrasse),einwärts,Z106 - Zürichbergstrasse (Dreiwiesenstrasse) (einwärts),2685565.376,1248500.95,47.381784259356984,8.571751490503111,"[47.381784259356984,8.571751490503111]",data/prepared/profiles/Z106_einwärts.csv
Z107_Zoo,Z107,Dreiwiesenstrasse (Tobelhofstrasse),Zoo,Z107 - Dreiwiesenstrasse (Tobelhofstrasse) (Zoo),2685812.581,1248158.685,47.37867401668379,8.574959091224896,"[47.37867401668379,8.574959091224896]",data/prepared/profiles/Z107_Zoo.csv
Z107_auswärts,Z107,Dreiwiesenstrasse (Tobelhofstrasse),auswärts,Z107 - Dreiwiesenstrasse (Tobelhofstrasse) (auswärts),2685813.765,1248154.018,47.37863189074083,8.574973872717592,"[47.37863189074083,8.574973872717592]",data/prepared/profiles/Z107_auswärts.csv
Z108_auswärts,Z108,Tobelhofstrasse (Dreiwiesenstrasse),auswärts,Z108 - Tobelhofstrasse (Dreiwiesenstrasse) (auswärts),2685813.35,1248142.25,47.37852611162638,8.574966121552066,"[47.37852611162638,8.574966121552066]",data/prepared/profiles/Z108_auswärts.csv
Z109_Schimmelstrasse,Z109,Manessestrasse - Schimmelstrasse,Schimmelstrasse,Z109 - Manessestrasse - Schimmelstrasse (Schimmelstrasse),2682115.54,1247071.906,47.36937131988885,8.525809752474817,"[47.36937131988885,8.525809752474817]",data/prepared/profiles/Z109_Schimmelstrasse.csv
Z110_auswärts,Z110,Autobahn A1L - Ausfahrt Aubrugg,auswärts,Z110 - Autobahn A1L - Ausfahrt Aubrugg (auswärts),2685376.041,1251634.045,47.40998556548189,8.569842600546686,"[47.40998556548189,8.569842600546686]",data/prepared/profiles/Z110_auswärts.csv
Z111_auswärts,Z111,Hagenholzstrasse (Riedgrabenweg),auswärts,Z111 - Hagenholzstrasse (Riedgrabenweg) (auswärts),2684566.331,1252126.196,47.414516078811054,8.559208661407045,"[47.414516078811054,8.559208661407045]",data/prepared/profiles/Z111_auswärts.csv
